{"nightLife":[{"name":"Cielo Nightclub","address":"505 Neches St, Austin, TX 78701, USA","long":30.266167,"lat":30.266167,"rating":3.1,"userRating":115,"place_id":"ChIJ0WXlR6a1RIYRvalkDL_NI5Y"},{"name":"El Nocturno Night Club","address":"7601 N Lamar Blvd, Austin, TX 78752, USA","long":30.3443812,"lat":30.3443812,"rating":3.7,"userRating":37,"place_id":"ChIJfWSTejPKRIYRaY4WfI1jhCE"},{"name":"Rodeo Night Club","address":"9515 N Lamar Blvd #200, Austin, TX 78753, USA","long":30.364266,"lat":30.364266,"rating":3.7,"userRating":51,"place_id":"ChIJx2V82WPJRIYR0lEd7GtytGU"},{"name":"LUX","address":"620 W 6th St, Austin, TX 78701, USA","long":30.270049,"lat":30.270049,"rating":3.8,"userRating":19,"place_id":"ChIJOU-lKQy1RIYRDo89Latmg84"},{"name":"The Rose Room","address":"11500 Rock Rose, Austin, TX 78758, USA","long":30.40140259999999,"lat":30.40140259999999,"rating":3.8,"userRating":131,"place_id":"ChIJaX-b9XLMRIYRab6yxgr6EpU"},{"name":"Barcelona","address":"209 E 6th St, Austin, TX 78701, USA","long":30.2674624,"lat":30.2674624,"rating":3.9,"userRating":220,"place_id":"ChIJRSBCeKe1RIYRc9JEYFQeCiY"},{"name":"RIO","address":"601 Rio Grande St, Austin, TX 78701, USA","long":30.2700077,"lat":30.2700077,"rating":3.9,"userRating":269,"place_id":"ChIJL53UKwy1RIYRxXxpSD7hy9A"},{"name":"Summit Austin","address":"120 W 5th St, Austin, TX 78701, USA","long":30.2675544,"lat":30.2675544,"rating":4,"userRating":119,"place_id":"ChIJJfN_rgm1RIYRz3pXP5N6B1Y"},{"name":"Shenanigans Nightclub","address":"13233 Pond Springs Rd #316, Austin, TX 78729, USA","long":30.4465177,"lat":30.4465177,"rating":4,"userRating":111,"place_id":"ChIJp8le-jHNRIYR_HK1-kszm6k"},{"name":"Oilcan Harry’s","address":"211 W 4th St, Austin, TX 78701, USA","long":30.2665701,"lat":30.2665701,"rating":4.1,"userRating":106,"place_id":"ChIJ4_Uy5Ai1RIYR-qUCjJoOjOU"},{"name":"Boomerz","address":"6148 US-290, Austin, TX 78735, USA","long":30.2363393,"lat":30.2363393,"rating":4.1,"userRating":55,"place_id":"ChIJ2winT89LW4YR2z1zoY9tuJM"},{"name":"Midtown Live","address":"7408 Cameron Rd # 3, Austin, TX 78752, USA","long":30.3298096,"lat":30.3298096,"rating":4.1,"userRating":76,"place_id":"ChIJaWtZf5PJRIYRTcQtHpDas-4"},{"name":"Vulcan Gas Company","address":"418 E 6th St, Austin, TX 78701, USA","long":30.267136,"lat":30.267136,"rating":4.2,"userRating":145,"place_id":"ChIJcfSfUaa1RIYRZb58dz2-xaw"},{"name":"Lit Lounge","address":"215 E 6th St, Austin, TX 78701, USA","long":30.2672425,"lat":30.2672425,"rating":4.2,"userRating":49,"place_id":"ChIJbxcknae1RIYRnkFF_DEK7Lg"},{"name":"OK Corral Nightclub","address":"7031, 629 W Ben White Blvd, Austin, TX 78704, United States","long":30.225869,"lat":30.225869,"rating":4.2,"userRating":58,"place_id":"ChIJRwoi6bi0RIYRgcA3pKssc1k"},{"name":"Elysium","address":"705 Red River St, Austin, TX 78701, USA","long":30.2677199,"lat":30.2677199,"rating":4.4,"userRating":302,"place_id":"ChIJsft0faa1RIYR5KAbLnxKYpI"},{"name":"Elephant Room","address":"315 Congress Ave, Austin, TX 78701, USA","long":30.2656314,"lat":30.2656314,"rating":4.6,"userRating":1096,"place_id":"ChIJa59yaAi1RIYRyTOii08uLtQ"},{"name":"The Continental Club","address":"1315 S Congress Ave, Austin, TX 78704, USA","long":30.250506,"lat":30.250506,"rating":4.6,"userRating":1050,"place_id":"ChIJJUbJuv20RIYRpFyFb-IiSZo"},{"name":"Plush","address":"617 Red River St, Austin, TX 78701, USA","long":30.2672397,"lat":30.2672397,"rating":4.6,"userRating":165,"place_id":"ChIJDWdneaa1RIYRKqiRe7M0zA4"},{"name":"Antone's Nightclub","address":"305 E 5th St, Austin, TX 78701, USA","long":30.2660481,"lat":30.2660481,"rating":4.6,"userRating":823,"place_id":"ChIJZZ3WGwm1RIYRH7c0XjpoXZQ"}],"restaurants":[{"name":"Jalisco's - Austin","address":"6601 S Congress Ave, Austin, TX 78745, USA","long":30.1938732,"lat":30.1938732,"rating":4.1,"userRating":980,"place_id":"ChIJ1TwE3VGzRIYRYrtrFyn86p4"},{"name":"Frank","address":"2918, 407 Colorado St, Austin, TX 78701, United States","long":30.2669643,"lat":30.2669643,"rating":4.2,"userRating":1383,"place_id":"ChIJNWMB_wi1RIYRundVisrOtIc"},{"name":"North Italia","address":"11506 Century Oaks Terrace Suite 124, Austin, TX 78758, USA","long":30.402337,"lat":30.402337,"rating":4.4,"userRating":716,"place_id":"ChIJv1GZ8HHMRIYRwYLWJiQySY0"},{"name":"True Food Kitchen","address":"222 West Ave Ste HR100, Austin, TX 78701, United States","long":30.2671786,"lat":30.2671786,"rating":4.5,"userRating":1264,"place_id":"ChIJB_bjLg61RIYRrBuIICDuw90"},{"name":"Roaring Fork","address":"701 Congress Ave, Austin, TX 78701, USA","long":30.2690545,"lat":30.2690545,"rating":4.5,"userRating":959,"place_id":"ChIJ1XlZ4Qm1RIYR4rpevy6Ybs4"},{"name":"Gus’s Fried Chicken","address":"117 San Jacinto Blvd, Austin, TX 78701, USA","long":30.2634799,"lat":30.2634799,"rating":4.5,"userRating":2547,"place_id":"ChIJz50W9ge1RIYR_zs2KnEZIbs"},{"name":"Roaring Fork","address":"10850 Stonelake Blvd, Austin, TX 78759, USA","long":30.400877,"lat":30.400877,"rating":4.5,"userRating":1624,"place_id":"ChIJCxiuFHvMRIYRQy-KBmm5BjE"},{"name":"Odd Duck","address":"1201 S Lamar Blvd, Austin, TX 78704, USA","long":30.254672,"lat":30.254672,"rating":4.6,"userRating":1507,"place_id":"ChIJi8__nx-1RIYR56djED9FLLE"},{"name":"Jack Allen's Kitchen Oak Hill","address":"7720 TX-71, Austin, TX 78735, USA","long":30.2435596,"lat":30.2435596,"rating":4.6,"userRating":2200,"place_id":"ChIJWwxVGXhJW4YR9Doub51X9VE"},{"name":"Jack Allen’s Kitchen 360","address":"3600 N Capital of Texas Hwy, Austin, TX 78746, USA","long":30.3352753,"lat":30.3352753,"rating":4.6,"userRating":1301,"place_id":"ChIJ1Q7AtBg1W4YR5VKY7J00Ek0"},{"name":"Launderette","address":"2115 Holly St, Austin, TX 78702, USA","long":30.2518848,"lat":30.2518848,"rating":4.6,"userRating":953,"place_id":"ChIJQwHkAku0RIYR-lvYDf4FijU"},{"name":"Ramen Tatsu-ya","address":"8557 Research Blvd #126, Austin, TX 78758, USA","long":30.361154,"lat":30.361154,"rating":4.6,"userRating":3116,"place_id":"ChIJadj6lsbLRIYRT-N8spPzW7c"},{"name":"Dai Due","address":"2406 Manor Rd, Austin, TX 78722, USA","long":30.2848504,"lat":30.2848504,"rating":4.6,"userRating":300,"place_id":"ChIJsx9cWey1RIYRpeZVdPR4YtA"},{"name":"Ramen Tatsu-Ya","address":"1234 S Lamar Blvd, Austin, TX 78704, USA","long":30.2539227,"lat":30.2539227,"rating":4.6,"userRating":2688,"place_id":"ChIJc1DQhx-1RIYR9GC2zIYZldE"},{"name":"Bufalina Pizza","address":"1519 E Cesar Chavez St #200, Austin, TX 78702, USA","long":30.258394,"lat":30.258394,"rating":4.6,"userRating":541,"place_id":"ChIJ4ys7OrK1RIYRUYamRxM0adg"},{"name":"The Capital Grille","address":"117 W 4th St, Austin, TX 78701, USA","long":30.2662843,"lat":30.2662843,"rating":4.6,"userRating":502,"place_id":"ChIJIcQ99wi1RIYRDk-jP8lZ0fw"},{"name":"Valentina's Tex Mex BBQ","address":"11500 Manchaca Rd, Austin, TX 78748, USA","long":30.1530326,"lat":30.1530326,"rating":4.7,"userRating":2174,"place_id":"ChIJQX0zIAy1RIYRHoEdJsdw-I8"},{"name":"Koriente","address":"621 E 7th St, Austin, TX 78701, USA","long":30.2670064,"lat":30.2670064,"rating":4.7,"userRating":1134,"place_id":"ChIJL4hK16W1RIYRkwByrtqFIrg"},{"name":"Bouldin Creek Cafe","address":"1900 S 1st St, Austin, TX 78704, USA","long":30.2464928,"lat":30.2464928,"rating":4.7,"userRating":2348,"place_id":"ChIJH-Sj5OK0RIYRjC-_RrNEotk"},{"name":"Veracruz All Natural Food Truck","address":"1704 E Cesar Chavez St, Austin, TX 78702, USA","long":30.2577005,"lat":30.2577005,"rating":4.7,"userRating":981,"place_id":"ChIJ5TnXj7O1RIYR1QQH8J_paW8"}],"thingsToDo":[{"name":"Class Five LLC","address":"610 Guadalupe St, Austin, TX 78701, USA","long":30.269855,"lat":30.269855,"rating":0,"userRating":0,"place_id":"ChIJ2a5gWAm1RIYRlu1ybOkhT7E"},{"name":"Austin Zoo","address":"10808 Rawhide Trail, Austin, TX 78736, USA","long":30.263088,"lat":30.263088,"rating":4.3,"userRating":2406,"place_id":"ChIJA4YMcGpIW4YR41eE-dJVJUY"},{"name":"Umlauf Sculpture Garden & Museum","address":"605 Azie Morton Rd, Austin, TX 78704, USA","long":30.2632511,"lat":30.2632511,"rating":4.4,"userRating":434,"place_id":"ChIJg1OPKz21RIYRK7eNU47JTDk"},{"name":"Capital Cruises","address":"208 Barton Springs Rd, Austin, TX 78704, USA","long":30.2612697,"lat":30.2612697,"rating":4.5,"userRating":277,"place_id":"ChIJqeQrKAS1RIYRlgIOMoU1mdU"},{"name":"McKinney Falls State Park","address":"5808 McKinney Falls Pkwy, Austin, TX 78744, USA","long":30.1836487,"lat":30.1836487,"rating":4.5,"userRating":2540,"place_id":"ChIJi7M4Nb6zRIYRk8YBYI8Jg_s"},{"name":"Red Bud Isle","address":"3401 Redbud Trail, Austin, TX 78746, USA","long":30.2908201,"lat":30.2908201,"rating":4.6,"userRating":789,"place_id":"ChIJw5DRkKxKW4YR39xiQOzTrcQ"},{"name":"Zilker Botanical Garden","address":"2220 Barton Springs Rd, Austin, TX 78746, USA","long":30.2687172,"lat":30.2687172,"rating":4.6,"userRating":2061,"place_id":"ChIJqc0qKTq1RIYRrUZKed7fnys"},{"name":"Barton Springs Municipal Pool","address":"2131 William Barton Dr, Austin, TX 78746, USA","long":30.2640024,"lat":30.2640024,"rating":4.6,"userRating":3520,"place_id":"ChIJXVdJjDq1RIYRuahMgBpqoeQ"},{"name":"Bullock Texas State History Museum","address":"1800 Congress Ave, Austin, TX 78701, USA","long":30.27996499999999,"lat":30.27996499999999,"rating":4.6,"userRating":3337,"place_id":"ChIJzxUS9Z61RIYRopUORuC6AdM"},{"name":"Austin Nature & Science Center","address":"2389 Stratford Dr, Austin, TX 78746, USA","long":30.2721086,"lat":30.2721086,"rating":4.6,"userRating":131,"place_id":"ChIJCZfyHji1RIYRLcA0bvJew2A"},{"name":"Zilker Metropolitan Park","address":"2100 Barton Springs Rd, Austin, TX 78704, USA","long":30.2669624,"lat":30.2669624,"rating":4.7,"userRating":8679,"place_id":"ChIJT-TyHTq1RIYRrV8umxkqGGI"},{"name":"Mayfield Park and Nature Preserve","address":"3505 W 35th St, Austin, TX 78703, USA","long":30.3129736,"lat":30.3129736,"rating":4.7,"userRating":1041,"place_id":"ChIJI349t7vKRIYRAB0f414STOk"},{"name":"Barton Creek Greenbelt","address":"3755 S Capital of Texas Hwy B, Austin, TX 78704, USA","long":30.24716699999999,"lat":30.24716699999999,"rating":4.7,"userRating":2510,"place_id":"ChIJabb0sdZKW4YR7Rlal52tALI"},{"name":"Texas Capitol","address":"1100 Congress Ave, Austin, TX 78701, USA","long":30.2746652,"lat":30.2746652,"rating":4.7,"userRating":2154,"place_id":"ChIJz42sFKC1RIYROdCVpyJXb8s"},{"name":"The Contemporary Austin - Laguna Gloria","address":"3809 W 35th St, Austin, TX 78703, USA","long":30.312136,"lat":30.312136,"rating":4.7,"userRating":50,"place_id":"ChIJr1sxgbDKRIYRWOyH2w1KG_w"},{"name":"Mueller Lake Park","address":"4550 Mueller Blvd, Austin, TX 78723, USA","long":30.2967706,"lat":30.2967706,"rating":4.7,"userRating":2051,"place_id":"ChIJKYtScPm1RIYR3XNM9fOKrMY"},{"name":"Visit Austin","address":"111 Congress Ave Suite 700, Austin, TX 78701, USA","long":30.2635895,"lat":30.2635895,"rating":4.8,"userRating":10,"place_id":"ChIJ36V7Ewi1RIYRs0YEXV6ek9I"},{"name":"Lake Travis Zipline Adventures","address":"14529 Pocohontas Trail, Volente, TX 78641, USA","long":30.4300189,"lat":30.4300189,"rating":4.9,"userRating":802,"place_id":"ChIJdVzbWZ4xW4YRWHENoFkqe7U"},{"name":"Lone Star Boat Rentals","address":"3826 Lake Austin Blvd, Austin, TX 78723, USA","long":30.2972049,"lat":30.2972049,"rating":5,"userRating":21,"place_id":"ChIJy8vHmarKRIYRqKOM1yIBmIQ"},{"name":"Yentna","address":"815-A Brazos St Suite 294, Austin, TX 78701, USA","long":30.2702509,"lat":30.2702509,"rating":5,"userRating":9,"place_id":"ChIJxZSA49mrK4cRPTxH_ixY9Vs"}],"dayTrips":[{"name":"Austin Tours","address":"555 E 5th St, Austin, TX 78701, USA","long":30.2654517,"lat":30.2654517,"rating":4,"userRating":4,"place_id":"ChIJKRkBPaa1RIYRCvAVVSI1iLU"},{"name":"France and Italy Tours by Well Arranged Travel","address":"1036 Liberty Park Dr #39, Austin, TX 78746, USA","long":30.2656746,"lat":30.2656746,"rating":4,"userRating":1,"place_id":"ChIJWWcLAL3OWBQR6gBBjxk5De0"},{"name":"The Contemporary Austin - Jones Center","address":"700 Congress Ave, Austin, TX 78701, USA","long":30.2692802,"lat":30.2692802,"rating":4,"userRating":282,"place_id":"ChIJw8JDBwq1RIYRlnFdJ511Fbk"},{"name":"Austin Visitor Center","address":"602 E 4th St, Austin, TX 78701, USA","long":30.264709,"lat":30.264709,"rating":4.4,"userRating":296,"place_id":"ChIJRSBCeKe1RIYRW-wLgaDTg74"},{"name":"Ann W. Richards Congress Avenue Bridge","address":"Congress Ave, Austin, TX 78704, USA","long":30.2616901,"lat":30.2616901,"rating":4.5,"userRating":1038,"place_id":"ChIJQQf_Twa1RIYR_-yai1QRCMc"},{"name":"Capital Cruises","address":"208 Barton Springs Rd, Austin, TX 78704, USA","long":30.2612697,"lat":30.2612697,"rating":4.5,"userRating":277,"place_id":"ChIJqeQrKAS1RIYRlgIOMoU1mdU"},{"name":"McKinney Falls State Park","address":"5808 McKinney Falls Pkwy, Austin, TX 78744, USA","long":30.1836487,"lat":30.1836487,"rating":4.5,"userRating":2540,"place_id":"ChIJi7M4Nb6zRIYRk8YBYI8Jg_s"},{"name":"LBJ Presidential Library","address":"2313 Red River St, Austin, TX 78712, USA","long":30.2858226,"lat":30.2858226,"rating":4.5,"userRating":261,"place_id":"ChIJ-WVL_5C1RIYRfDHlppbnLYE"},{"name":"Blanton Museum of Art","address":"200 E Martin Luther King Jr Blvd, Austin, TX 78712, USA","long":30.2808109,"lat":30.2808109,"rating":4.6,"userRating":1152,"place_id":"ChIJOzfaZJ61RIYRbcc8dXvgz74"},{"name":"Greetings From Austin Mural","address":"1720 S 1st St, Austin, TX 78704, USA","long":30.2475992,"lat":30.2475992,"rating":4.6,"userRating":575,"place_id":"ChIJLyBll-O0RIYRCdLME0ySav0"},{"name":"Bullock Texas State History Museum","address":"1800 Congress Ave, Austin, TX 78701, USA","long":30.27996499999999,"lat":30.27996499999999,"rating":4.6,"userRating":3337,"place_id":"ChIJzxUS9Z61RIYRopUORuC6AdM"},{"name":"Barton Springs Municipal Pool","address":"2131 William Barton Dr, Austin, TX 78746, USA","long":30.2640024,"lat":30.2640024,"rating":4.6,"userRating":3520,"place_id":"ChIJXVdJjDq1RIYRuahMgBpqoeQ"},{"name":"Circuit of the Americas","address":"9201 Circuit of the Americas Blvd, Austin, TX 78617, USA","long":30.1345808,"lat":30.1345808,"rating":4.6,"userRating":7002,"place_id":"ChIJ-epS0TqwRIYR7eD1H90n6Io"},{"name":"Austin Nature & Science Center","address":"2389 Stratford Dr, Austin, TX 78746, USA","long":30.2721086,"lat":30.2721086,"rating":4.6,"userRating":131,"place_id":"ChIJCZfyHji1RIYRLcA0bvJew2A"},{"name":"Lady Bird Johnson Wildflower Center","address":"4801 La Crosse Ave, Austin, TX 78739, USA","long":30.1854455,"lat":30.1854455,"rating":4.7,"userRating":1401,"place_id":"ChIJx-dV4FqET4YRIeaczoVvOgc"},{"name":"Zilker Metropolitan Park","address":"2100 Barton Springs Rd, Austin, TX 78704, USA","long":30.2669624,"lat":30.2669624,"rating":4.7,"userRating":8679,"place_id":"ChIJT-TyHTq1RIYRrV8umxkqGGI"},{"name":"Barton Creek Greenbelt","address":"3755 S Capital of Texas Hwy B, Austin, TX 78704, USA","long":30.24716699999999,"lat":30.24716699999999,"rating":4.7,"userRating":2510,"place_id":"ChIJabb0sdZKW4YR7Rlal52tALI"},{"name":"Texas Capitol","address":"1100 Congress Ave, Austin, TX 78701, USA","long":30.2746652,"lat":30.2746652,"rating":4.7,"userRating":2154,"place_id":"ChIJz42sFKC1RIYROdCVpyJXb8s"},{"name":"Visit Austin","address":"111 Congress Ave Suite 700, Austin, TX 78701, USA","long":30.2635895,"lat":30.2635895,"rating":4.8,"userRating":10,"place_id":"ChIJ36V7Ewi1RIYRs0YEXV6ek9I"},{"name":"Captain Day Trips","address":"9402 Crownspoint Cir, Austin, TX 78748, USA","long":30.18228999999999,"lat":30.18228999999999,"rating":5,"userRating":1,"place_id":"ChIJ0cqQ0WFMW4YRjLyxvmYIwts"}],"topSpots":[{"name":"Elephant Room","address":"315 Congress Ave, Austin, TX 78701, USA","long":30.2656314,"lat":30.2656314,"rating":4.6,"userRating":1096,"place_id":"ChIJa59yaAi1RIYRyTOii08uLtQ"},{"name":"The Continental Club","address":"1315 S Congress Ave, Austin, TX 78704, USA","long":30.250506,"lat":30.250506,"rating":4.6,"userRating":1050,"place_id":"ChIJJUbJuv20RIYRpFyFb-IiSZo"},{"name":"Plush","address":"617 Red River St, Austin, TX 78701, USA","long":30.2672397,"lat":30.2672397,"rating":4.6,"userRating":165,"place_id":"ChIJDWdneaa1RIYRKqiRe7M0zA4"},{"name":"Antone's Nightclub","address":"305 E 5th St, Austin, TX 78701, USA","long":30.2660481,"lat":30.2660481,"rating":4.6,"userRating":823,"place_id":"ChIJZZ3WGwm1RIYRH7c0XjpoXZQ"},{"name":"Barton Creek Greenbelt","address":"3755 S Capital of Texas Hwy B, Austin, TX 78704, USA","long":30.24716699999999,"lat":30.24716699999999,"rating":4.7,"userRating":2510,"place_id":"ChIJabb0sdZKW4YR7Rlal52tALI"},{"name":"Texas Capitol","address":"1100 Congress Ave, Austin, TX 78701, USA","long":30.2746652,"lat":30.2746652,"rating":4.7,"userRating":2154,"place_id":"ChIJz42sFKC1RIYROdCVpyJXb8s"},{"name":"Visit Austin","address":"111 Congress Ave Suite 700, Austin, TX 78701, USA","long":30.2635895,"lat":30.2635895,"rating":4.8,"userRating":10,"place_id":"ChIJ36V7Ewi1RIYRs0YEXV6ek9I"},{"name":"Captain Day Trips","address":"9402 Crownspoint Cir, Austin, TX 78748, USA","long":30.18228999999999,"lat":30.18228999999999,"rating":5,"userRating":1,"place_id":"ChIJ0cqQ0WFMW4YRjLyxvmYIwts"},{"name":"Valentina's Tex Mex BBQ","address":"11500 Manchaca Rd, Austin, TX 78748, USA","long":30.1530326,"lat":30.1530326,"rating":4.7,"userRating":2174,"place_id":"ChIJQX0zIAy1RIYRHoEdJsdw-I8"},{"name":"Koriente","address":"621 E 7th St, Austin, TX 78701, USA","long":30.2670064,"lat":30.2670064,"rating":4.7,"userRating":1134,"place_id":"ChIJL4hK16W1RIYRkwByrtqFIrg"},{"name":"Bouldin Creek Cafe","address":"1900 S 1st St, Austin, TX 78704, USA","long":30.2464928,"lat":30.2464928,"rating":4.7,"userRating":2348,"place_id":"ChIJH-Sj5OK0RIYRjC-_RrNEotk"},{"name":"Veracruz All Natural Food Truck","address":"1704 E Cesar Chavez St, Austin, TX 78702, USA","long":30.2577005,"lat":30.2577005,"rating":4.7,"userRating":981,"place_id":"ChIJ5TnXj7O1RIYR1QQH8J_paW8"},{"name":"Visit Austin","address":"111 Congress Ave Suite 700, Austin, TX 78701, USA","long":30.2635895,"lat":30.2635895,"rating":4.8,"userRating":10,"place_id":"ChIJ36V7Ewi1RIYRs0YEXV6ek9I"},{"name":"Lake Travis Zipline Adventures","address":"14529 Pocohontas Trail, Volente, TX 78641, USA","long":30.4300189,"lat":30.4300189,"rating":4.9,"userRating":802,"place_id":"ChIJdVzbWZ4xW4YRWHENoFkqe7U"},{"name":"Lone Star Boat Rentals","address":"3826 Lake Austin Blvd, Austin, TX 78723, USA","long":30.2972049,"lat":30.2972049,"rating":5,"userRating":21,"place_id":"ChIJy8vHmarKRIYRqKOM1yIBmIQ"},{"name":"Yentna","address":"815-A Brazos St Suite 294, Austin, TX 78701, USA","long":30.2702509,"lat":30.2702509,"rating":5,"userRating":9,"place_id":"ChIJxZSA49mrK4cRPTxH_ixY9Vs"}]}